{
"type": "FeatureCollection",
"name": "notificacao84",
"crs": { "type": "name", "properties": { "name": "urn:ogc:def:crs:OGC:1.3:CRS84" } },
"features": [
{ "type": "Feature", "properties": { "id": null, "Name": "notificado 0004-2025 - voltar dia 03/04", "descriptio": "Rua Belica 36", "timestamp": null, "begin": null, "end": null, "altitudeMo": null, "tessellate": -1, "extrude": 0, "visibility": -1, "drawOrder": null, "icon": null }, "geometry": { "type": "Point", "coordinates": [ -44.169104225901293, -21.107993521495121, 0.0 ] } },
{ "type": "Feature", "properties": { "id": null, "Name": "Notificado 0006-2025 - Voltar dia 03/04", "descriptio": "Rua Francisco de Paulo de Trinade 122", "timestamp": null, "begin": null, "end": null, "altitudeMo": null, "tessellate": -1, "extrude": 0, "visibility": -1, "drawOrder": null, "icon": null }, "geometry": { "type": "Point", "coordinates": [ -44.165153102357323, -21.108633652633088, 0.0 ] } },
{ "type": "Feature", "properties": { "id": null, "Name": "Notificação Nº0016/2025 - Voltar dia 11/04", "descriptio": "<a href=\"https://drive.google.com/drive/folders/1G_HVjYTzN0bM9PJM5BCix1VJmSsDp_TF?usp=drive_link\">https://drive.google.com/drive/folders/1G_HVjYTzN0bM9PJM5BCix1VJmSsDp_TF?usp=drive_link</a>", "timestamp": null, "begin": null, "end": null, "altitudeMo": null, "tessellate": -1, "extrude": 0, "visibility": -1, "drawOrder": null, "icon": null }, "geometry": { "type": "Point", "coordinates": [ -44.155163708875158, -21.106108630228317, 0.0 ] } },
{ "type": "Feature", "properties": { "id": null, "Name": "Notificação Nº009-2025 - Voltar dia 06/04", "descriptio": null, "timestamp": null, "begin": null, "end": null, "altitudeMo": null, "tessellate": -1, "extrude": 0, "visibility": -1, "drawOrder": null, "icon": null }, "geometry": { "type": "Point", "coordinates": [ -44.17047391464169, -21.128328567377437, 0.0 ] } },
{ "type": "Feature", "properties": { "id": null, "Name": "Notificação Nº0020/2025 - PARALIZAÇÃO", "descriptio": null, "timestamp": null, "begin": null, "end": null, "altitudeMo": null, "tessellate": -1, "extrude": 0, "visibility": -1, "drawOrder": null, "icon": null }, "geometry": { "type": "Point", "coordinates": [ -44.159075312587127, -21.114187123154132, 0.0 ] } },
{ "type": "Feature", "properties": { "id": null, "Name": "Notificação Nº 0018/ 2025 - Voltar dia 15/04", "descriptio": "Rua João Siqueira Afonso, 287, Bandeirantes I\n\n<a href=\"https://drive.google.com/drive/folders/1Eda0IB4i6Hb2hNP3nKCQNo5EDbjA9B_Y?usp=drive_link\">https://drive.google.com/drive/folders/1Eda0IB4i6Hb2hNP3nKCQNo5EDbjA9B_Y?usp=drive_link</a>", "timestamp": null, "begin": null, "end": null, "altitudeMo": null, "tessellate": -1, "extrude": 0, "visibility": -1, "drawOrder": null, "icon": null }, "geometry": { "type": "Point", "coordinates": [ -44.167387877013716, -21.1291536641466, 0.0 ] } },
{ "type": "Feature", "properties": { "id": null, "Name": "Notificação nº 0021/2025 - Voltar dia 26/04", "descriptio": "Denuncia IPHAN - Luiz Ney", "timestamp": null, "begin": null, "end": null, "altitudeMo": null, "tessellate": -1, "extrude": 0, "visibility": -1, "drawOrder": null, "icon": null }, "geometry": { "type": "Point", "coordinates": [ -44.17547455224296, -21.11037368003775, 0.0 ] } }
]
}
